{
    "type": "FeatureCollection",
    "crs": {
        "type": "name",
        "properties": {
            "name": "urn:ogc:def:crs:OGC:1.3:CRS84"
        }
    },
    "features": [
        {
            "type": "Feature",
            "geometry": {
                "type": "Point",
                "coordinates": [
                    9.460548,
                    54.787309
                ]
            },
            "properties": {
                "type": "recycling-bank",
                "location": "Adelbyer Kirchenweg",
                "details": "ggü. von Hausnr.115"
            }
        },
        {
            "type": "Feature",
            "geometry": {
                "type": "Point",
                "coordinates": [
                    9.387989,
                    54.758077
                ]
            },
            "properties": {
                "type": "recycling-bank",
                "location": "Alter Husumer Weg",
                "details": "Ecke Jägerberg / Supermarkt"
            }
        },
        {
            "type": "Feature",
            "geometry": {
                "type": "Point",
                "coordinates": [
                    9.418663,
                    54.810758
                ]
            },
            "properties": {
                "type": "recycling-bank",
                "location": "Alter Kupfermühlenweg",
                "details": "Ecke Sonderburger Straße"
            }
        },
        {
            "type": "Feature",
            "geometry": {
                "type": "Point",
                "coordinates": [
                    9.441429,
                    54.793241
                ]
            },
            "properties": {
                "type": "recycling-bank",
                "location": "Am Lautrupsbach",
                "details": "Parkplatz"
            }
        },
        {
            "type": "Feature",
            "geometry": {
                "type": "Point",
                "coordinates": [
                    9.417692,
                    54.781784
                ]
            },
            "properties": {
                "type": "recycling-bank",
                "location": "Am Ochsenmarkt",
                "details": "bei Hausnr. 27 / Parkstreifen"
            }
        },
        {
            "type": "Feature",
            "geometry": {
                "type": "Point",
                "coordinates": [
                    9.468369,
                    54.81609
                ]
            },
            "properties": {
                "type": "recycling-bank",
                "location": "Am Soot",
                "details": "bei Hausnr. 20 unter Laterne"
            }
        },
        {
            "type": "Feature",
            "geometry": {
                "type": "Point",
                "coordinates": [
                    9.42274,
                    54.808044
                ]
            },
            "properties": {
                "type": "recycling-bank",
                "location": "Apenrader Straße",
                "details": "Kiosk / Ecke Ostseebadweg"
            }
        },
        {
            "type": "Feature",
            "geometry": {
                "type": "Point",
                "coordinates": [
                    9.460773,
                    54.807391
                ]
            },
            "properties": {
                "type": "recycling-bank",
                "location": "Blücherstraße",
                "details": "bei Hausnr. 9"
            }
        },
        {
            "type": "Feature",
            "geometry": {
                "type": "Point",
                "coordinates": [
                    9.405874,
                    54.760132
                ]
            },
            "properties": {
                "type": "recycling-bank",
                "location": "Bredstedter Straße",
                "details": "in der Kurve Grünstreifen"
            }
        },
        {
            "type": "Feature",
            "geometry": {
                "type": "Point",
                "coordinates": [
                    9.418609,
                    54.797735
                ]
            },
            "properties": {
                "type": "recycling-bank",
                "location": "Eckenerstraße",
                "details": "ggü. Hausnr. 67"
            }
        },
        {
            "type": "Feature",
            "geometry": {
                "type": "Point",
                "coordinates": [
                    9.418754,
                    54.798938
                ]
            },
            "properties": {
                "type": "recycling-bank",
                "location": "Eckenerstraße",
                "details": "Ecke Harrisleer Straße"
            }
        },
        {
            "type": "Feature",
            "geometry": {
                "type": "Point",
                "coordinates": [
                    9.465457,
                    54.799949
                ]
            },
            "properties": {
                "type": "recycling-bank",
                "location": "Elbehof",
                "details": "Ecke Elbestraße"
            }
        },
        {
            "type": "Feature",
            "geometry": {
                "type": "Point",
                "coordinates": [
                    9.463906,
                    54.802379
                ]
            },
            "properties": {
                "type": "recycling-bank",
                "location": "Elbestraße",
                "details": "bei Hausnr. 29 im Parkstreifen ggü. Schule "
            }
        },
        {
            "type": "Feature",
            "geometry": {
                "type": "Point",
                "coordinates": [
                    9.471357,
                    54.79458
                ]
            },
            "properties": {
                "type": "recycling-bank",
                "location": "Engelsbyer Straße",
                "details": "Einkaufszentrum (hinter 'Textildiscounter')"
            }
        },
        {
            "type": "Feature",
            "geometry": {
                "type": "Point",
                "coordinates": [
                    9.414994,
                    54.805595
                ]
            },
            "properties": {
                "type": "recycling-bank",
                "location": "Freyastraße",
                "details": "Parkplatz"
            }
        },
        {
            "type": "Feature",
            "geometry": {
                "type": "Point",
                "coordinates": [
                    9.417944,
                    54.785731
                ]
            },
            "properties": {
                "type": "recycling-bank",
                "location": "Friedhofstraße",
                "details": "Ecke Nerongsallee (ggü. Mühlenfriedhof)"
            }
        },
        {
            "type": "Feature",
            "geometry": {
                "type": "Point",
                "coordinates": [
                    9.456525,
                    54.803517
                ]
            },
            "properties": {
                "type": "recycling-bank",
                "location": "Fruerlunder Straße",
                "details": "ggü. Hausnr. 78 in Sackgasse hinter Tankstelle"
            }
        },
        {
            "type": "Feature",
            "geometry": {
                "type": "Point",
                "coordinates": [
                    9.462157,
                    54.801594
                ]
            },
            "properties": {
                "type": "recycling-bank",
                "location": "Fruerlundholz",
                "details": "ggü. Hausnr. 33"
            }
        },
        {
            "type": "Feature",
            "geometry": {
                "type": "Point",
                "coordinates": [
                    9.452813,
                    54.788327
                ]
            },
            "properties": {
                "type": "recycling-bank",
                "location": "Glücksburger Straße",
                "details": "ggü. Hausnr. 94 im Parkstreifen"
            }
        },
        {
            "type": "Feature",
            "geometry": {
                "type": "Point",
                "coordinates": [
                    9.464942,
                    54.797129
                ]
            },
            "properties": {
                "type": "recycling-bank",
                "location": "Hesttoft",
                "details": "Ecke Alsterbogen bei Hausnr. 60"
            }
        },
        {
            "type": "Feature",
            "geometry": {
                "type": "Point",
                "coordinates": [
                    9.414023,
                    54.781543
                ]
            },
            "properties": {
                "type": "recycling-bank",
                "location": "Hinrich-Ringeringk-Straße",
                "details": "bei Hausnr. 17 / Parkplatz"
            }
        },
        {
            "type": "Feature",
            "geometry": {
                "type": "Point",
                "coordinates": [
                    9.397806,
                    54.759569
                ]
            },
            "properties": {
                "type": "recycling-bank",
                "location": "Holzkrugweg",
                "details": "Ecke Ochsenweg"
            }
        },
        {
            "type": "Feature",
            "geometry": {
                "type": "Point",
                "coordinates": [
                    9.422053,
                    54.757696
                ]
            },
            "properties": {
                "type": "recycling-bank",
                "location": "Iltishof",
                "details": "Wendeplatz"
            }
        },
        {
            "type": "Feature",
            "geometry": {
                "type": "Point",
                "coordinates": [
                    9.484946,
                    54.801238
                ]
            },
            "properties": {
                "type": "recycling-bank",
                "location": "Kauslundhof",
                "details": "Recyclinghof TBZ"
            }
        },
        {
            "type": "Feature",
            "geometry": {
                "type": "Point",
                "coordinates": [
                    9.480885,
                    54.806083
                ]
            },
            "properties": {
                "type": "recycling-bank",
                "location": "Kiefernweg",
                "details": "bei Haus Nr. 1-3 / Parkplatz"
            }
        },
        {
            "type": "Feature",
            "geometry": {
                "type": "Point",
                "coordinates": [
                    9.474394,
                    54.815685
                ]
            },
            "properties": {
                "type": "recycling-bank",
                "location": "Kleine Lücke",
                "details": "beim Supermarkt"
            }
        },
        {
            "type": "Feature",
            "geometry": {
                "type": "Point",
                "coordinates": [
                    9.41826,
                    54.814471
                ]
            },
            "properties": {
                "type": "recycling-bank",
                "location": "Klueser Weg",
                "details": "ggü. Spielplatz / Ecke Waldeckestraße"
            }
        },
        {
            "type": "Feature",
            "geometry": {
                "type": "Point",
                "coordinates": [
                    9.410262,
                    54.797716
                ]
            },
            "properties": {
                "type": "recycling-bank",
                "location": "Lornsendamm",
                "details": "Recyclinghof TBZ"
            }
        },
        {
            "type": "Feature",
            "geometry": {
                "type": "Point",
                "coordinates": [
                    9.414656,
                    54.780305
                ]
            },
            "properties": {
                "type": "recycling-bank",
                "location": "Marienallee",
                "details": "vor Hausnr. 32"
            }
        },
        {
            "type": "Feature",
            "geometry": {
                "type": "Point",
                "coordinates": [
                    9.421055,
                    54.789719
                ]
            },
            "properties": {
                "type": "recycling-bank",
                "location": "Marienhölzungsweg",
                "details": "Ecke Gertrudenstraße"
            }
        },
        {
            "type": "Feature",
            "geometry": {
                "type": "Point",
                "coordinates": [
                    9.472141,
                    54.815419
                ]
            },
            "properties": {
                "type": "recycling-bank",
                "location": "Marrensdamm",
                "details": "vor Hausnr. 2 / Sparkasse"
            }
        },
        {
            "type": "Feature",
            "geometry": {
                "type": "Point",
                "coordinates": [
                    9.476384,
                    54.812789
                ]
            },
            "properties": {
                "type": "recycling-bank",
                "location": "Marrensdamm",
                "details": "Parkstreifen ggü. von Hausnr. 38"
            }
        },
        {
            "type": "Feature",
            "geometry": {
                "type": "Point",
                "coordinates": [
                    9.422439,
                    54.78369
                ]
            },
            "properties": {
                "type": "recycling-bank",
                "location": "Mathildenstraße",
                "details": "Bürgersteig bei Supermarkt"
            }
        },
        {
            "type": "Feature",
            "geometry": {
                "type": "Point",
                "coordinates": [
                    9.471712,
                    54.791683
                ]
            },
            "properties": {
                "type": "recycling-bank",
                "location": "Mozartstraße",
                "details": "ggü. Brahmstraße"
            }
        },
        {
            "type": "Feature",
            "geometry": {
                "type": "Point",
                "coordinates": [
                    9.450898,
                    54.796485
                ]
            },
            "properties": {
                "type": "recycling-bank",
                "location": "Mürwiker Straße",
                "details": "bei Hausnr. 36"
            }
        },
        {
            "type": "Feature",
            "geometry": {
                "type": "Point",
                "coordinates": [
                    9.431672,
                    54.775612
                ]
            },
            "properties": {
                "type": "recycling-bank",
                "location": "Nane-Jürgensen-Weg",
                "details": "Hausnr. 26-30 / Holzverschlag"
            }
        },
        {
            "type": "Feature",
            "geometry": {
                "type": "Point",
                "coordinates": [
                    9.42407,
                    54.77982
                ]
            },
            "properties": {
                "type": "recycling-bank",
                "location": "Nikolaiallee",
                "details": "ggü. Hausnr. 6 / Exe Parkplatz"
            }
        },
        {
            "type": "Feature",
            "geometry": {
                "type": "Point",
                "coordinates": [
                    9.398723,
                    54.75669
                ]
            },
            "properties": {
                "type": "recycling-bank",
                "location": "Nikolaus-Matthiesen-Straße",
                "details": "ggü. Hausnr. 12 / Parkplatz (Verschlag)"
            }
        },
        {
            "type": "Feature",
            "geometry": {
                "type": "Point",
                "coordinates": [
                    9.403895,
                    54.753948
                ]
            },
            "properties": {
                "type": "recycling-bank",
                "location": "Ochsenweg",
                "details": "Ecke an der Friedenskirche"
            }
        },
        {
            "type": "Feature",
            "geometry": {
                "type": "Point",
                "coordinates": [
                    9.462909,
                    54.809237
                ]
            },
            "properties": {
                "type": "recycling-bank",
                "location": "Osterallee",
                "details": "Ecke Klosterholzweg"
            }
        },
        {
            "type": "Feature",
            "geometry": {
                "type": "Point",
                "coordinates": [
                    9.398643,
                    54.763747
                ]
            },
            "properties": {
                "type": "recycling-bank",
                "location": "Pellwormer Weg",
                "details": "Ecke Alter Husumer Weg"
            }
        },
        {
            "type": "Feature",
            "geometry": {
                "type": "Point",
                "coordinates": [
                    9.466154,
                    54.791018
                ]
            },
            "properties": {
                "type": "recycling-bank",
                "location": "Richard-Wagner-Straße",
                "details": "Ecke Beethovenstraße"
            }
        },
        {
            "type": "Feature",
            "geometry": {
                "type": "Point",
                "coordinates": [
                    9.433785,
                    54.792712
                ]
            },
            "properties": {
                "type": "recycling-bank",
                "location": "Schiffbrücke",
                "details": "Schifffahrtsmuseum (ggü. Hausnr. 36 im Verschlag) "
            }
        },
        {
            "type": "Feature",
            "geometry": {
                "type": "Point",
                "coordinates": [
                    9.432417,
                    54.795317
                ]
            },
            "properties": {
                "type": "recycling-bank",
                "location": "Schiffbrücke",
                "details": "FWN-Parkplatz (ggü. Hausnr. 63 im Verschlag)"
            }
        },
        {
            "type": "Feature",
            "geometry": {
                "type": "Point",
                "coordinates": [
                    9.434386,
                    54.773848
                ]
            },
            "properties": {
                "type": "recycling-bank",
                "location": "Schleswiger Straße",
                "details": "Ecke Tegelbark / Parkplatz"
            }
        },
        {
            "type": "Feature",
            "geometry": {
                "type": "Point",
                "coordinates": [
                    9.437438,
                    54.768216
                ]
            },
            "properties": {
                "type": "recycling-bank",
                "location": "Schleswiger Straße",
                "details": "Hausnr. 95a / Recyclinghof (TBZ)"
            }
        },
        {
            "type": "Feature",
            "geometry": {
                "type": "Point",
                "coordinates": [
                    9.446445,
                    54.778638
                ]
            },
            "properties": {
                "type": "recycling-bank",
                "location": "Schulze-Delitzsch-Straße",
                "details": "Ecke Kanzleistraße im Parkstreifen ggü. Garagenhof"
            }
        },
        {
            "type": "Feature",
            "geometry": {
                "type": "Point",
                "coordinates": [
                    9.428002,
                    54.788651
                ]
            },
            "properties": {
                "type": "recycling-bank",
                "location": "Selckstraße",
                "details": "Parkstreifen öffentliche Toiletten"
            }
        },
        {
            "type": "Feature",
            "geometry": {
                "type": "Point",
                "coordinates": [
                    9.483004,
                    54.819193
                ]
            },
            "properties": {
                "type": "recycling-bank",
                "location": "Solitüder Straße",
                "details": "ggü. Solitüder Bogen"
            }
        },
        {
            "type": "Feature",
            "geometry": {
                "type": "Point",
                "coordinates": [
                    9.442084,
                    54.791355
                ]
            },
            "properties": {
                "type": "recycling-bank",
                "location": "St.-Jürgen-Straße",
                "details": "Ecke Friedastraße"
            }
        },
        {
            "type": "Feature",
            "geometry": {
                "type": "Point",
                "coordinates": [
                    9.433259,
                    54.78266
                ]
            },
            "properties": {
                "type": "recycling-bank",
                "location": "Südergraben",
                "details": "Am Lutherpark / Ecke Friedrichstraße"
            }
        },
        {
            "type": "Feature",
            "geometry": {
                "type": "Point",
                "coordinates": [
                    9.462984,
                    54.775507
                ]
            },
            "properties": {
                "type": "recycling-bank",
                "location": "Sünderuper Weg",
                "details": "Parkstreifen vor den Wohnblocks"
            }
        },
        {
            "type": "Feature",
            "geometry": {
                "type": "Point",
                "coordinates": [
                    9.447572,
                    54.775547
                ]
            },
            "properties": {
                "type": "recycling-bank",
                "location": "Thomas-Fincke-Straße",
                "details": "Ecke Kanzleistraße"
            }
        },
        {
            "type": "Feature",
            "geometry": {
                "type": "Point",
                "coordinates": [
                    9.405761,
                    54.786523
                ]
            },
            "properties": {
                "type": "recycling-bank",
                "location": "Timm-Kröger-Weg",
                "details": "Hausnr. 28 / im Verschlag"
            }
        },
        {
            "type": "Feature",
            "geometry": {
                "type": "Point",
                "coordinates": [
                    9.428614,
                    54.79082
                ]
            },
            "properties": {
                "type": "recycling-bank",
                "location": "Toosbüystraße",
                "details": "ggü. Hausnr. 21 / im Verschlag"
            }
        },
        {
            "type": "Feature",
            "geometry": {
                "type": "Point",
                "coordinates": [
                    9.479179,
                    54.791113
                ]
            },
            "properties": {
                "type": "recycling-bank",
                "location": "Trögelsbyer Weg",
                "details": "Ecke Merkurstraße / Parkplatz Supermarkt"
            }
        },
        {
            "type": "Feature",
            "geometry": {
                "type": "Point",
                "coordinates": [
                    9.4697,
                    54.81686
                ]
            },
            "properties": {
                "type": "recycling-bank",
                "location": "Twedter Berg",
                "details": "ggü. Hausnr. 6"
            }
        },
        {
            "type": "Feature",
            "geometry": {
                "type": "Point",
                "coordinates": [
                    9.482848,
                    54.812103
                ]
            },
            "properties": {
                "type": "recycling-bank",
                "location": "Twedter Feld",
                "details": "Hausnr. 14-16 / Parkstreifen"
            }
        },
        {
            "type": "Feature",
            "geometry": {
                "type": "Point",
                "coordinates": [
                    9.440276,
                    54.777608
                ]
            },
            "properties": {
                "type": "recycling-bank",
                "location": "Waitzstraße",
                "details": "ggü. Hausnr. 38 und Zufahrt Berufsfeuerwehr"
            }
        },
        {
            "type": "Feature",
            "geometry": {
                "type": "Point",
                "coordinates": [
                    9.421935,
                    54.793183
                ]
            },
            "properties": {
                "type": "recycling-bank",
                "location": "Waldstraße",
                "details": "Parkplatz Agentur für Arbeit"
            }
        },
        {
            "type": "Feature",
            "geometry": {
                "type": "Point",
                "coordinates": [
                    9.415208,
                    54.793622
                ]
            },
            "properties": {
                "type": "recycling-bank",
                "location": "Waldstraße",
                "details": "neben Hausnr. 45 am Sportplatz / Parkbucht"
            }
        },
        {
            "type": "Feature",
            "geometry": {
                "type": "Point",
                "coordinates": [
                    9.480885,
                    54.802197
                ]
            },
            "properties": {
                "type": "recycling-bank",
                "location": "Wasserlooser Weg",
                "details": "Ecke Am Goldregen"
            }
        },
        {
            "type": "Feature",
            "geometry": {
                "type": "Point",
                "coordinates": [
                    9.439461,
                    54.785496
                ]
            },
            "properties": {
                "type": "recycling-bank",
                "location": "Wilhelmstraße",
                "details": "Ecke Augustastraße / Parkplatz"
            }
        },
        {
            "type": "Feature",
            "geometry": {
                "type": "Point",
                "coordinates": [
                    9.48244,
                    54.806529
                ]
            },
            "properties": {
                "type": "recycling-bank",
                "location": "Zypressenweg",
                "details": "Parkstreifen ggü. Oleanderhof"
            }
        }
    ]
}