{"type": "FeatureCollection", "crs": {"type": "name", "properties": {"name": "urn:ogc:def:crs:OGC:1.3:CRS84"}}, "features": [{"type": "Feature", "geometry": {"type": "Point", "coordinates": [9.460548, 54.787309]}, "properties": {"type": "clothes", "details": "ggü. von Hausnr.115", "place": "Adelbyer Kirchenweg"}}, {"type": "Feature", "geometry": {"type": "Point", "coordinates": [9.387989, 54.758077]}, "properties": {"type": "clothes", "details": "Ecke Jägerberg / Supermarkt", "place": "Alter Husumer Weg"}}, {"type": "Feature", "geometry": {"type": "Point", "coordinates": [9.418663, 54.810758]}, "properties": {"type": "clothes", "details": "Ecke Sonderburger Straße", "place": "Alter Kupfermühlenweg"}}, {"type": "Feature", "geometry": {"type": "Point", "coordinates": [9.441429, 54.793241]}, "properties": {"type": "clothes", "details": "Parkplatz", "place": "Am Lautrupsbach"}}, {"type": "Feature", "geometry": {"type": "Point", "coordinates": [9.417692, 54.781784]}, "properties": {"type": "clothes", "details": "bei Hausnr. 27 / Parkstreifen", "place": "Am Ochsenmarkt"}}, {"type": "Feature", "geometry": {"type": "Point", "coordinates": [9.468369, 54.81609]}, "properties": {"type": "clothes,glass_bottles", "details": "bei Hausnr. 20 unter Laterne", "place": "Am Soot"}}, {"type": "Feature", "geometry": {"type": "Point", "coordinates": [9.42274, 54.808044]}, "properties": {"type": "clothes,glass_bottles", "details": "Kiosk / Ecke Ostseebadweg", "place": "Apenrader Straße"}}, {"type": "Feature", "geometry": {"type": "Point", "coordinates": [9.460773, 54.807391]}, "properties": {"type": "clothes", "details": "bei Hausnr. 9", "place": "Blücherstraße"}}, {"type": "Feature", "geometry": {"type": "Point", "coordinates": [9.405874, 54.760132]}, "properties": {"type": "clothes,glass_bottles", "details": "in der Kurve Grünstreifen", "place": "Bredstedter Straße"}}, {"type": "Feature", "geometry": {"type": "Point", "coordinates": [9.418609, 54.797735]}, "properties": {"type": "clothes,glass_bottles", "details": "ggü. Hausnr. 67", "place": "Eckenerstraße"}}, {"type": "Feature", "geometry": {"type": "Point", "coordinates": [9.418754, 54.798938]}, "properties": {"type": "clothes", "details": "Ecke Harrisleer Straße", "place": "Eckenerstraße"}}, {"type": "Feature", "geometry": {"type": "Point", "coordinates": [9.465457, 54.799949]}, "properties": {"type": "clothes,glass_bottles", "details": "Ecke Elbestraße", "place": "Elbehof"}}, {"type": "Feature", "geometry": {"type": "Point", "coordinates": [9.463906, 54.802379]}, "properties": {"type": "clothes,glass_bottles", "details": "bei Hausnr. 29 im Parkstreifen ggü. Schule ", "place": "Elbestraße"}}, {"type": "Feature", "geometry": {"type": "Point", "coordinates": [9.471357, 54.79458]}, "properties": {"type": "clothes,glass_bottles", "details": "Einkaufszentrum (hinter 'Textildiscounter')", "place": "Engelsbyer Straße"}}, {"type": "Feature", "geometry": {"type": "Point", "coordinates": [9.414994, 54.805595]}, "properties": {"type": "clothes,glass_bottles", "details": "Parkplatz", "place": "Freyastraße"}}, {"type": "Feature", "geometry": {"type": "Point", "coordinates": [9.417944, 54.785731]}, "properties": {"type": "clothes,glass_bottles", "details": "Ecke Nerongsallee (ggü. Mühlenfriedhof)", "place": "Friedhofstraße"}}, {"type": "Feature", "geometry": {"type": "Point", "coordinates": [9.456525, 54.803517]}, "properties": {"type": "clothes,glass_bottles", "details": "ggü. Hausnr. 78 in Sackgasse hinter Tankstelle", "place": "Fruerlunder Straße"}}, {"type": "Feature", "geometry": {"type": "Point", "coordinates": [9.462157, 54.801594]}, "properties": {"type": "clothes,glass_bottles", "details": "ggü. Hausnr. 33", "place": "Fruerlundholz"}}, {"type": "Feature", "geometry": {"type": "Point", "coordinates": [9.452813, 54.788327]}, "properties": {"type": "clothes,glass_bottles", "details": "ggü. Hausnr. 94 im Parkstreifen", "place": "Glücksburger Straße"}}, {"type": "Feature", "geometry": {"type": "Point", "coordinates": [9.464942, 54.797129]}, "properties": {"type": "clothes", "details": "Ecke Alsterbogen bei Hausnr. 60", "place": "Hesttoft"}}, {"type": "Feature", "geometry": {"type": "Point", "coordinates": [9.414023, 54.781543]}, "properties": {"type": "clothes", "details": "bei Hausnr. 17 / Parkplatz", "place": "Hinrich-Ringeringk-Straße"}}, {"type": "Feature", "geometry": {"type": "Point", "coordinates": [9.397806, 54.759569]}, "properties": {"type": "clothes", "details": "Ecke Ochsenweg", "place": "Holzkrugweg"}}, {"type": "Feature", "geometry": {"type": "Point", "coordinates": [9.422053, 54.757696]}, "properties": {"type": "clothes,glass_bottles", "details": "Wendeplatz", "place": "Iltishof"}}, {"type": "Feature", "geometry": {"type": "Point", "coordinates": [9.484946, 54.801238]}, "properties": {"type": "clothes,glass_bottles", "details": "Recyclinghof TBZ", "place": "Kauslundhof"}}, {"type": "Feature", "geometry": {"type": "Point", "coordinates": [9.480885, 54.806083]}, "properties": {"type": "clothes", "details": "bei Haus Nr. 1-3 / Parkplatz", "place": "Kiefernweg"}}, {"type": "Feature", "geometry": {"type": "Point", "coordinates": [9.474394, 54.815685]}, "properties": {"type": "clothes", "details": "beim Supermarkt", "place": "Kleine Lücke"}}, {"type": "Feature", "geometry": {"type": "Point", "coordinates": [9.41826, 54.814471]}, "properties": {"type": "clothes,glass_bottles", "details": "ggü. Spielplatz / Ecke Waldeckestraße", "place": "Klueser Weg"}}, {"type": "Feature", "geometry": {"type": "Point", "coordinates": [9.410262, 54.797716]}, "properties": {"type": "clothes,glass_bottles", "details": "Recyclinghof TBZ", "place": "Lornsendamm"}}, {"type": "Feature", "geometry": {"type": "Point", "coordinates": [9.414656, 54.780305]}, "properties": {"type": "clothes", "details": "vor Hausnr. 32", "place": "Marienallee"}}, {"type": "Feature", "geometry": {"type": "Point", "coordinates": [9.421055, 54.789719]}, "properties": {"type": "clothes,glass_bottles", "details": "Ecke Gertrudenstraße", "place": "Marienhölzungsweg"}}, {"type": "Feature", "geometry": {"type": "Point", "coordinates": [9.472141, 54.815419]}, "properties": {"type": "clothes,glass_bottles", "details": "vor Hausnr. 2 / Sparkasse", "place": "Marrensdamm"}}, {"type": "Feature", "geometry": {"type": "Point", "coordinates": [9.476384, 54.812789]}, "properties": {"type": "clothes", "details": "Parkstreifen ggü. von Hausnr. 38", "place": "Marrensdamm"}}, {"type": "Feature", "geometry": {"type": "Point", "coordinates": [9.422439, 54.78369]}, "properties": {"type": "clothes,glass_bottles", "details": "Bürgersteig bei Supermarkt", "place": "Mathildenstraße"}}, {"type": "Feature", "geometry": {"type": "Point", "coordinates": [9.471712, 54.791683]}, "properties": {"type": "clothes,glass_bottles", "details": "ggü. Brahmstraße", "place": "Mozartstraße"}}, {"type": "Feature", "geometry": {"type": "Point", "coordinates": [9.450898, 54.796485]}, "properties": {"type": "clothes", "details": "bei Hausnr. 36", "place": "Mürwiker Straße"}}, {"type": "Feature", "geometry": {"type": "Point", "coordinates": [9.431672, 54.775612]}, "properties": {"type": "clothes,glass_bottles", "details": "Hausnr. 26-30 / Holzverschlag", "place": "Nane-Jürgensen-Weg"}}, {"type": "Feature", "geometry": {"type": "Point", "coordinates": [9.42407, 54.77982]}, "properties": {"type": "clothes,glass_bottles", "details": "ggü. Hausnr. 6 / Exe Parkplatz", "place": "Nikolaiallee"}}, {"type": "Feature", "geometry": {"type": "Point", "coordinates": [9.398723, 54.75669]}, "properties": {"type": "clothes,glass_bottles", "details": "ggü. Hausnr. 12 / Parkplatz (Verschlag)", "place": "Nikolaus-Matthiesen-Straße"}}, {"type": "Feature", "geometry": {"type": "Point", "coordinates": [9.403895, 54.753948]}, "properties": {"type": "clothes", "details": "Ecke an der Friedenskirche", "place": "Ochsenweg"}}, {"type": "Feature", "geometry": {"type": "Point", "coordinates": [9.462909, 54.809237]}, "properties": {"type": "clothes,glass_bottles", "details": "Ecke Klosterholzweg", "place": "Osterallee"}}, {"type": "Feature", "geometry": {"type": "Point", "coordinates": [9.398643, 54.763747]}, "properties": {"type": "clothes", "details": "Ecke Alter Husumer Weg", "place": "Pellwormer Weg"}}, {"type": "Feature", "geometry": {"type": "Point", "coordinates": [9.466154, 54.791018]}, "properties": {"type": "clothes,glass_bottles", "details": "Ecke Beethovenstraße", "place": "Richard-Wagner-Straße"}}, {"type": "Feature", "geometry": {"type": "Point", "coordinates": [9.433785, 54.792712]}, "properties": {"type": "clothes,glass_bottles", "details": "Schifffahrtsmuseum (ggü. Hausnr. 36 im Verschlag) ", "place": "Schiffbrücke"}}, {"type": "Feature", "geometry": {"type": "Point", "coordinates": [9.432417, 54.795317]}, "properties": {"type": "clothes,glass_bottles", "details": "FWN-Parkplatz (ggü. Hausnr. 63 im Verschlag)", "place": "Schiffbrücke"}}, {"type": "Feature", "geometry": {"type": "Point", "coordinates": [9.434386, 54.773848]}, "properties": {"type": "clothes,glass_bottles", "details": "Ecke Tegelbark / Parkplatz", "place": "Schleswiger Straße"}}, {"type": "Feature", "geometry": {"type": "Point", "coordinates": [9.437438, 54.768216]}, "properties": {"type": "clothes,glass_bottles", "details": "Hausnr. 95a / Recyclinghof (TBZ)", "place": "Schleswiger Straße"}}, {"type": "Feature", "geometry": {"type": "Point", "coordinates": [9.446445, 54.778638]}, "properties": {"type": "clothes,glass_bottles", "details": "Ecke Kanzleistraße im Parkstreifen ggü. Garagenhof", "place": "Schulze-Delitzsch-Straße"}}, {"type": "Feature", "geometry": {"type": "Point", "coordinates": [9.428002, 54.788651]}, "properties": {"type": "clothes,glass_bottles", "details": "Parkstreifen öffentliche Toiletten", "place": "Selckstraße"}}, {"type": "Feature", "geometry": {"type": "Point", "coordinates": [9.483004, 54.819193]}, "properties": {"type": "clothes,glass_bottles", "details": "ggü. Solitüder Bogen", "place": "Solitüder Straße"}}, {"type": "Feature", "geometry": {"type": "Point", "coordinates": [9.442084, 54.791355]}, "properties": {"type": "clothes,glass_bottles", "details": "Ecke Friedastraße", "place": "St.-Jürgen-Straße"}}, {"type": "Feature", "geometry": {"type": "Point", "coordinates": [9.433259, 54.78266]}, "properties": {"type": "clothes,glass_bottles", "details": "Am Lutherpark / Ecke Friedrichstraße", "place": "Südergraben"}}, {"type": "Feature", "geometry": {"type": "Point", "coordinates": [9.462984, 54.775507]}, "properties": {"type": "clothes,glass_bottles", "details": "Parkstreifen vor den Wohnblocks", "place": "Sünderuper Weg"}}, {"type": "Feature", "geometry": {"type": "Point", "coordinates": [9.447572, 54.775547]}, "properties": {"type": "clothes,glass_bottles", "details": "Ecke Kanzleistraße", "place": "Thomas-Fincke-Straße"}}, {"type": "Feature", "geometry": {"type": "Point", "coordinates": [9.405761, 54.786523]}, "properties": {"type": "clothes,glass_bottles", "details": "Hausnr. 28 / im Verschlag", "place": "Timm-Kröger-Weg"}}, {"type": "Feature", "geometry": {"type": "Point", "coordinates": [9.428614, 54.79082]}, "properties": {"type": "clothes,glass_bottles", "details": "ggü. Hausnr. 21 / im Verschlag", "place": "Toosbüystraße"}}, {"type": "Feature", "geometry": {"type": "Point", "coordinates": [9.479179, 54.791113]}, "properties": {"type": "clothes,glass_bottles", "details": "Ecke Merkurstraße / Parkplatz Supermarkt", "place": "Trögelsbyer Weg"}}, {"type": "Feature", "geometry": {"type": "Point", "coordinates": [9.4697, 54.81686]}, "properties": {"type": "clothes", "details": "ggü. Hausnr. 6", "place": "Twedter Berg"}}, {"type": "Feature", "geometry": {"type": "Point", "coordinates": [9.482848, 54.812103]}, "properties": {"type": "clothes", "details": "Hausnr. 14-16 / Parkstreifen", "place": "Twedter Feld"}}, {"type": "Feature", "geometry": {"type": "Point", "coordinates": [9.440276, 54.777608]}, "properties": {"type": "clothes,glass_bottles", "details": "ggü. Hausnr. 38 und Zufahrt Berufsfeuerwehr", "place": "Waitzstraße"}}, {"type": "Feature", "geometry": {"type": "Point", "coordinates": [9.421935, 54.793183]}, "properties": {"type": "clothes,glass_bottles", "details": "Parkplatz Agentur für Arbeit", "place": "Waldstraße"}}, {"type": "Feature", "geometry": {"type": "Point", "coordinates": [9.415208, 54.793622]}, "properties": {"type": "clothes,glass_bottles", "details": "neben Hausnr. 45 am Sportplatz / Parkbucht", "place": "Waldstraße"}}, {"type": "Feature", "geometry": {"type": "Point", "coordinates": [9.480885, 54.802197]}, "properties": {"type": "clothes,glass_bottles", "details": "Ecke Am Goldregen", "place": "Wasserlooser Weg"}}, {"type": "Feature", "geometry": {"type": "Point", "coordinates": [9.439461, 54.785496]}, "properties": {"type": "clothes,glass_bottles", "details": "Ecke Augustastraße / Parkplatz", "place": "Wilhelmstraße"}}, {"type": "Feature", "geometry": {"type": "Point", "coordinates": [9.48244, 54.806529]}, "properties": {"type": "clothes,glass_bottles", "details": "Parkstreifen ggü. Oleanderhof", "place": "Zypressenweg"}}, {"type": "Feature", "geometry": {"type": "Point", "coordinates": [9.460537, 54.787272]}, "properties": {"type": "glass_bottles", "details": "ggü. Hausnr. 115", "place": "Adelbyer Kirchenweg"}}, {"type": "Feature", "geometry": {"type": "Point", "coordinates": [9.418733, 54.810746]}, "properties": {"type": "glass_bottles", "details": "Ecke Sonderburger Straße (vor Aldi)", "place": "Alter Kupfermühlenweg"}}, {"type": "Feature", "geometry": {"type": "Point", "coordinates": [9.441445, 54.793235]}, "properties": {"type": "glass_bottles", "details": "Parkplatz", "place": "Am Lautrupsbach"}}, {"type": "Feature", "geometry": {"type": "Point", "coordinates": [9.428785, 54.809203]}, "properties": {"type": "glass_bottles", "details": "Standort von Oktober bis März", "place": "Am Ostseebad"}}, {"type": "Feature", "geometry": {"type": "Point", "coordinates": [9.42907, 54.812848]}, "properties": {"type": "glass_bottles", "details": "Standort April bis September", "place": "Am Ostseebad"}}, {"type": "Feature", "geometry": {"type": "Point", "coordinates": [9.44607, 54.78098]}, "properties": {"type": "glass_bottles", "details": "in der Kurve", "place": "An der Johannismühle"}}, {"type": "Feature", "geometry": {"type": "Point", "coordinates": [9.427664, 54.802441]}, "properties": {"type": "glass_bottles", "details": "", "place": "Brauereiweg"}}, {"type": "Feature", "geometry": {"type": "Point", "coordinates": [9.472205, 54.82178]}, "properties": {"type": "glass_bottles", "details": "Fahrensodde (Schrankendurchfahrt Gastseglerhafen)", "place": "Ewoldtweg"}}, {"type": "Feature", "geometry": {"type": "Point", "coordinates": [9.452088, 54.802856]}, "properties": {"type": "glass_bottles", "details": "", "place": "Fichtestraße"}}, {"type": "Feature", "geometry": {"type": "Point", "coordinates": [9.454948, 54.810671]}, "properties": {"type": "glass_bottles", "details": "ggü. Hausnr. 22", "place": "Fördepromenade"}}, {"type": "Feature", "geometry": {"type": "Point", "coordinates": [9.454658, 54.809129]}, "properties": {"type": "glass_bottles", "details": "ggü. Hausnr. 10/12", "place": "Fördepromenade"}}, {"type": "Feature", "geometry": {"type": "Point", "coordinates": [9.426227, 54.796516]}, "properties": {"type": "glass_bottles", "details": "Haus Nr.9", "place": "Gartenstraße"}}, {"type": "Feature", "geometry": {"type": "Point", "coordinates": [9.437696, 54.789273]}, "properties": {"type": "glass_bottles", "details": "Am Kanalschuppen 6 (Gastseglerhafen)", "place": "Hafendamm"}}, {"type": "Feature", "geometry": {"type": "Point", "coordinates": [9.437712, 54.797781]}, "properties": {"type": "glass_bottles", "details": "", "place": "Harniskai"}}, {"type": "Feature", "geometry": {"type": "Point", "coordinates": [9.464561, 54.79707]}, "properties": {"type": "glass_bottles", "details": "Nr. 31-33", "place": "Hesttoft"}}, {"type": "Feature", "geometry": {"type": "Point", "coordinates": [9.436762, 54.78403]}, "properties": {"type": "glass_bottles", "details": "Knut-Laward-Straße", "place": "Holmhof"}}, {"type": "Feature", "geometry": {"type": "Point", "coordinates": [9.387603, 54.758755]}, "properties": {"type": "glass_bottles", "details": "Nummer 1", "place": "Jägerweg"}}, {"type": "Feature", "geometry": {"type": "Point", "coordinates": [9.395939, 54.772685]}, "properties": {"type": "glass_bottles", "details": "Citti-Park / Parkplatz", "place": "Langberger Weg"}}, {"type": "Feature", "geometry": {"type": "Point", "coordinates": [9.446064, 54.761878]}, "properties": {"type": "glass_bottles", "details": "", "place": "Lise-Meitner-Straße"}}, {"type": "Feature", "geometry": {"type": "Point", "coordinates": [9.414822, 54.780404]}, "properties": {"type": "glass_bottles", "details": "bei Haus Nr. 43", "place": "Marienallee"}}, {"type": "Feature", "geometry": {"type": "Point", "coordinates": [9.40964, 54.791667]}, "properties": {"type": "glass_bottles", "details": "", "place": "Marienhölzungsweg"}}, {"type": "Feature", "geometry": {"type": "Point", "coordinates": [9.475096, 54.813392]}, "properties": {"type": "glass_bottles", "details": "Parkbucht vor Haus Nr. 18", "place": "Marrensberg"}}, {"type": "Feature", "geometry": {"type": "Point", "coordinates": [9.450656, 54.796278]}, "properties": {"type": "glass_bottles", "details": "bei Hausnr. 32", "place": "Mürwiker Straße"}}, {"type": "Feature", "geometry": {"type": "Point", "coordinates": [9.451869, 54.77037]}, "properties": {"type": "glass_bottles", "details": "", "place": "Munketoft"}}, {"type": "Feature", "geometry": {"type": "Point", "coordinates": [9.473273, 54.781948]}, "properties": {"type": "glass_bottles", "details": "Ecke Taruper Hauptstraße / Parkplatz", "place": "Norderlück"}}, {"type": "Feature", "geometry": {"type": "Point", "coordinates": [9.466417, 54.779826]}, "properties": {"type": "glass_bottles", "details": "", "place": "Ringstraße"}}, {"type": "Feature", "geometry": {"type": "Point", "coordinates": [9.474077, 54.771107]}, "properties": {"type": "glass_bottles", "details": "", "place": "Ringstraße/Himmelberg"}}, {"type": "Feature", "geometry": {"type": "Point", "coordinates": [9.433785, 54.758235]}, "properties": {"type": "glass_bottles", "details": "Fördepark", "place": "Schleswiger Straße"}}, {"type": "Feature", "geometry": {"type": "Point", "coordinates": [9.4499, 54.779517]}, "properties": {"type": "glass_bottles", "details": "bei Hausnr. 34-36 / Parkstreifen", "place": "Schulze-Delitzsch-Straße"}}, {"type": "Feature", "geometry": {"type": "Point", "coordinates": [9.487939, 54.820964]}, "properties": {"type": "glass_bottles", "details": "Parkplatz Restaurant", "place": "Solitüde"}}, {"type": "Feature", "geometry": {"type": "Point", "coordinates": [9.479431, 54.772394]}, "properties": {"type": "glass_bottles", "details": "", "place": "Tastruper Weg"}}, {"type": "Feature", "geometry": {"type": "Point", "coordinates": [9.484248, 54.812582]}, "properties": {"type": "glass_bottles", "details": "Hausnr. 14-16 / Parkstreifen", "place": "Twedter Feld"}}]}